[
  {
    "distrito": "Aveiro",
    "concelhos": [
      { "nome": "Águeda", "lat": 40.5765, "lng": -8.4485 },
      { "nome": "Albergaria-a-Velha", "lat": 40.6918, "lng": -8.4795 },
      { "nome": "Anadia", "lat": 40.4424, "lng": -8.4341 },
      { "nome": "Arouca", "lat": 40.9322, "lng": -8.2476 },
      { "nome": "Aveiro", "lat": 40.6405, "lng": -8.6538 },
      { "nome": "Castelo de Paiva", "lat": 41.0331, "lng": -8.2657 },
      { "nome": "Espinho", "lat": 41.0071, "lng": -8.6429 },
      { "nome": "Estarreja", "lat": 40.7471, "lng": -8.5748 },
      { "nome": "Ílhavo", "lat": 40.6010, "lng": -8.6681 },
      { "nome": "Mealhada", "lat": 40.3786, "lng": -8.4483 },
      { "nome": "Murtosa", "lat": 40.7362, "lng": -8.6340 },
      { "nome": "Oliveira de Azeméis", "lat": 40.8391, "lng": -8.4768 },
      { "nome": "Oliveira do Bairro", "lat": 40.5103, "lng": -8.4971 },
      { "nome": "Ovar", "lat": 40.8633, "lng": -8.6278 },
      { "nome": "Santa Maria da Feira", "lat": 40.9268, "lng": -8.5430 },
      { "nome": "São João da Madeira", "lat": 40.9012, "lng": -8.4909 },
      { "nome": "Sever do Vouga", "lat": 40.7291, "lng": -8.3609 },
      { "nome": "Vagos", "lat": 40.5564, "lng": -8.6800 },
      { "nome": "Vale de Cambra", "lat": 40.8459, "lng": -8.3920 }
    ]
  },
  {
    "distrito": "Beja",
    "concelhos": [
      { "nome": "Aljustrel", "lat": 37.8777, "lng": -8.1669 },
      { "nome": "Almodôvar", "lat": 37.5132, "lng": -8.0607 },
      { "nome": "Alvito", "lat": 38.2536, "lng": -8.0272 },
      { "nome": "Barrancos", "lat": 38.1306, "lng": -6.9726 },
      { "nome": "Beja", "lat": 38.0151, "lng": -7.8641 },
      { "nome": "Castro Verde", "lat": 37.6944, "lng": -8.0853 },
      { "nome": "Cuba", "lat": 38.1636, "lng": -7.8931 },
      { "nome": "Ferreira do Alentejo", "lat": 38.0546, "lng": -8.1128 },
      { "nome": "Mértola", "lat": 37.6386, "lng": -7.6607 },
      { "nome": "Moura", "lat": 38.1410, "lng": -7.4521 },
      { "nome": "Odemira", "lat": 37.5960, "lng": -8.6424 },
      { "nome": "Ourique", "lat": 37.6509, "lng": -8.2268 },
      { "nome": "Serpa", "lat": 37.9414, "lng": -7.5972 },
      { "nome": "Vidigueira", "lat": 38.2085, "lng": -7.8020 }
    ]
  },
  {
    "distrito": "Braga",
    "concelhos": [
      { "nome": "Amares", "lat": 41.6296, "lng": -8.3551 },
      { "nome": "Barcelos", "lat": 41.5368, "lng": -8.6190 },
      { "nome": "Braga", "lat": 41.5518, "lng": -8.4229 },
      { "nome": "Cabeceiras de Basto", "lat": 41.5180, "lng": -7.9946 },
      { "nome": "Celorico de Basto", "lat": 41.3923, "lng": -8.0031 },
      { "nome": "Esposende", "lat": 41.5327, "lng": -8.7739 },
      { "nome": "Fafe", "lat": 41.4517, "lng": -8.1726 },
      { "nome": "Guimarães", "lat": 41.4424, "lng": -8.2965 },
      { "nome": "Póvoa de Lanhoso", "lat": 41.5756, "lng": -8.2663 },
      { "nome": "Terras de Bouro", "lat": 41.7219, "lng": -8.3011 },
      { "nome": "Vieira do Minho", "lat": 41.6354, "lng": -8.1299 },
      { "nome": "Vila Nova de Famalicão", "lat": 41.4028, "lng": -8.5166 },
      { "nome": "Vila Verde", "lat": 41.6512, "lng": -8.4362 },
      { "nome": "Vizela", "lat": 41.3784, "lng": -8.3065 }
    ]
  },
  {
    "distrito": "Bragança",
    "concelhos": [
      { "nome": "Alfândega da Fé", "lat": 41.3490, "lng": -6.9564 },
      { "nome": "Bragança", "lat": 41.8061, "lng": -6.7590 },
      { "nome": "Carrazeda de Ansiães", "lat": 41.2412, "lng": -7.2915 },
      { "nome": "Freixo de Espada à Cinta", "lat": 41.0917, "lng": -6.8016 },
      { "nome": "Macedo de Cavaleiros", "lat": 41.5327, "lng": -6.9594 },
      { "nome": "Miranda do Douro", "lat": 41.4975, "lng": -6.2750 },
      { "nome": "Mirandela", "lat": 41.4852, "lng": -7.1838 },
      { "nome": "Mogadouro", "lat": 41.3398, "lng": -6.7182 },
      { "nome": "Torre de Moncorvo", "lat": 41.1755, "lng": -7.0573 },
      { "nome": "Vila Flor", "lat": 41.3042, "lng": -7.1512 },
      { "nome": "Vimioso", "lat": 41.5793, "lng": -6.5121 },
      { "nome": "Vinhais", "lat": 41.8308, "lng": -7.0058 }
    ]
  },
  {
    "distrito": "Castelo Branco",
    "concelhos": [
      { "nome": "Belmonte", "lat": 40.3568, "lng": -7.3488 },
      { "nome": "Castelo Branco", "lat": 39.8196, "lng": -7.4916 },
      { "nome": "Covilhã", "lat": 40.2840, "lng": -7.5044 },
      { "nome": "Fundão", "lat": 40.1394, "lng": -7.5007 },
      { "nome": "Idanha-a-Nova", "lat": 39.9225, "lng": -7.1504 },
      { "nome": "Oleiros", "lat": 39.9154, "lng": -7.9058 },
      { "nome": "Penamacor", "lat": 40.1677, "lng": -7.1761 },
      { "nome": "Proença-a-Nova", "lat": 39.7545, "lng": -7.9278 },
      { "nome": "Sertã", "lat": 39.8037, "lng": -8.0984 },
      { "nome": "Vila de Rei", "lat": 39.6801, "lng": -8.1497 },
      { "nome": "Vila Velha de Ródão", "lat": 39.6562, "lng": -7.6759 }
    ]
  },
  {
    "distrito": "Coimbra",
    "concelhos": [
      { "nome": "Arganil", "lat": 40.2222, "lng": -8.0548 },
      { "nome": "Cantanhede", "lat": 40.3449, "lng": -8.5970 },
      { "nome": "Coimbra", "lat": 40.2033, "lng": -8.4103 },
      { "nome": "Condeixa-a-Nova", "lat": 40.1159, "lng": -8.4970 },
      { "nome": "Figueira da Foz", "lat": 40.1513, "lng": -8.8623 },
      { "nome": "Góis", "lat": 40.1594, "lng": -8.1098 },
      { "nome": "Lousã", "lat": 40.1079, "lng": -8.2438 },
      { "nome": "Mira", "lat": 40.4277, "lng": -8.7341 },
      { "nome": "Miranda do Corvo", "lat": 40.0929, "lng": -8.3348 },
      { "nome": "Montemor-o-Velho", "lat": 40.1713, "lng": -8.6780 },
      { "nome": "Oliveira do Hospital", "lat": 40.3591, "lng": -7.8607 },
      { "nome": "Pampilhosa da Serra", "lat": 40.0552, "lng": -7.9548 },
      { "nome": "Penacova", "lat": 40.2660, "lng": -8.2759 },
      { "nome": "Penela", "lat": 40.0277, "lng": -8.3917 },
      { "nome": "Soure", "lat": 40.0595, "lng": -8.6291 },
      { "nome": "Tábua", "lat": 40.3623, "lng": -8.0255 },
      { "nome": "Vila Nova de Poiares", "lat": 40.2126, "lng": -8.2658 }
    ]
  },
  {
    "distrito": "Évora",
    "concelhos": [
      { "nome": "Alandroal", "lat": 38.7025, "lng": -7.3979 },
      { "nome": "Arraiolos", "lat": 38.7170, "lng": -7.9851 },
      { "nome": "Borba", "lat": 38.8015, "lng": -7.4607 },
      { "nome": "Estremoz", "lat": 38.8412, "lng": -7.5873 },
      { "nome": "Évora", "lat": 38.5711, "lng": -7.9079 },
      { "nome": "Montemor-o-Novo", "lat": 38.6468, "lng": -8.2155 },
      { "nome": "Mora", "lat": 38.9426, "lng": -8.1631 },
      { "nome": "Mourão", "lat": 38.3636, "lng": -7.4568 },
      { "nome": "Portel", "lat": 38.3044, "lng": -7.7048 },
      { "nome": "Redondo", "lat": 38.6470, "lng": -7.5452 },
      { "nome": "Reguengos de Monsaraz", "lat": 38.4258, "lng": -7.5350 },
      { "nome": "Vendas Novas", "lat": 38.6784, "lng": -8.4580 },
      { "nome": "Viana do Alentejo", "lat": 38.3367, "lng": -8.0153 },
      { "nome": "Vila Viçosa", "lat": 38.7746, "lng": -7.4186 }
    ]
  },
  {
    "distrito": "Faro",
    "concelhos": [
      { "nome": "Albufeira", "lat": 37.0886, "lng": -8.2497 },
      { "nome": "Alcoutim", "lat": 37.4701, "lng": -7.4710 },
      { "nome": "Aljezur", "lat": 37.3193, "lng": -8.8022 },
      { "nome": "Castro Marim", "lat": 37.2130, "lng": -7.4435 },
      { "nome": "Faro", "lat": 37.0193, "lng": -7.9304 },
      { "nome": "Lagoa", "lat": 37.1342, "lng": -8.4512 },
      { "nome": "Lagos", "lat": 37.1018, "lng": -8.6736 },
      { "nome": "Loulé", "lat": 37.1396, "lng": -8.0230 },
      { "nome": "Monchique", "lat": 37.3166, "lng": -8.5584 },
      { "nome": "Olhão", "lat": 37.0270, "lng": -7.8455 },
      { "nome": "Portimão", "lat": 37.1368, "lng": -8.5375 },
      { "nome": "São Brás de Alportel", "lat": 37.1540, "lng": -7.8942 },
      { "nome": "Silves", "lat": 37.1948, "lng": -8.4389 },
      { "nome": "Tavira", "lat": 37.1259, "lng": -7.6500 },
      { "nome": "Vila do Bispo", "lat": 37.0838, "lng": -8.9107 },
      { "nome": "Vila Real de Santo António", "lat": 37.1958, "lng": -7.4146 }
    ]
  },
  {
    "distrito": "Guarda",
    "concelhos": [
      { "nome": "Aguiar da Beira", "lat": 40.6771, "lng": -7.5398 },
      { "nome": "Almeida", "lat": 40.7209, "lng": -6.9128 },
      { "nome": "Celorico da Beira", "lat": 40.6359, "lng": -7.3906 },
      { "nome": "Figueira de Castelo Rodrigo", "lat": 40.8996, "lng": -6.9610 },
      { "nome": "Fornos de Algodres", "lat": 40.5993, "lng": -7.5356 },
      { "nome": "Gouveia", "lat": 40.4955, "lng": -7.5931 },
      { "nome": "Guarda", "lat": 40.5374, "lng": -7.2676 },
      { "nome": "Manteigas", "lat": 40.4005, "lng": -7.5326 },
      { "nome": "Mêda", "lat": 40.9579, "lng": -7.2735 },
      { "nome": "Pinhel", "lat": 40.7750, "lng": -7.0652 },
      { "nome": "Sabugal", "lat": 40.3479, "lng": -7.0830 },
      { "nome": "Seia", "lat": 40.4183, "lng": -7.7004 },
      { "nome": "Trancoso", "lat": 40.7771, "lng": -7.3502 },
      { "nome": "Vila Nova de Foz Côa", "lat": 41.0832, "lng": -7.1432 }
    ]
  },
  {
    "distrito": "Leiria",
    "concelhos": [
      { "nome": "Alcobaça", "lat": 39.5487, "lng": -8.9776 },
      { "nome": "Alvaiázere", "lat": 39.8220, "lng": -8.3887 },
      { "nome": "Ansião", "lat": 39.9041, "lng": -8.4348 },
      { "nome": "Batalha", "lat": 39.6597, "lng": -8.8251 },
      { "nome": "Bombarral", "lat": 39.2644, "lng": -9.1537 },
      { "nome": "Caldas da Rainha", "lat": 39.4003, "lng": -9.1370 },
      { "nome": "Castanheira de Pêra", "lat": 40.0014, "lng": -8.2001 },
      { "nome": "Figueiró dos Vinhos", "lat": 39.9048, "lng": -8.2733 },
      { "nome": "Leiria", "lat": 39.7436, "lng": -8.8071 },
      { "nome": "Marinha Grande", "lat": 39.7470, "lng": -8.9299 },
      { "nome": "Nazaré", "lat": 39.6021, "lng": -9.0702 },
      { "nome": "Óbidos", "lat": 39.3620, "lng": -9.1573 },
      { "nome": "Pedrógão Grande", "lat": 39.9197, "lng": -8.1516 },
      { "nome": "Peniche", "lat": 39.3562, "lng": -9.3812 },
      { "nome": "Pombal", "lat": 39.9174, "lng": -8.6273 },
      { "nome": "Porto de Mós", "lat": 39.5986, "lng": -8.8200 }
    ]
  },
  {
    "distrito": "Lisboa",
    "concelhos": [
      { "nome": "Alenquer", "lat": 39.0582, "lng": -9.0087 },
      { "nome": "Amadora", "lat": 38.7521, "lng": -9.2302 },
      { "nome": "Arruda dos Vinhos", "lat": 38.9875, "lng": -9.0771 },
      { "nome": "Azambuja", "lat": 38.8606, "lng": -8.8703 },
      { "nome": "Cadaval", "lat": 39.2438, "lng": -9.1049 },
      { "nome": "Cascais", "lat": 38.6979, "lng": -9.4215 },
      { "nome": "Lisboa", "lat": 38.7169, "lng": -9.1399 },
      { "nome": "Loures", "lat": 38.8308, "lng": -9.1686 },
      { "nome": "Lourinhã", "lat": 39.2407, "lng": -9.3134 },
      { "nome": "Mafra", "lat": 38.9289, "lng": -9.3316 },
      { "nome": "Odivelas", "lat": 38.7953, "lng": -9.1844 },
      { "nome": "Oeiras", "lat": 38.6964, "lng": -9.3048 },
      { "nome": "Sintra", "lat": 38.8001, "lng": -9.3879 },
      { "nome": "Sobral de Monte Agraço", "lat": 39.0186, "lng": -9.1517 },
      { "nome": "Torres Vedras", "lat": 39.0929, "lng": -9.2616 },
      { "nome": "Vila Franca de Xira", "lat": 38.9544, "lng": -8.9834 }
    ]
  },
  {
    "distrito": "Portalegre",
    "concelhos": [
      { "nome": "Alter do Chão", "lat": 39.2048, "lng": -7.6645 },
      { "nome": "Arronches", "lat": 39.1228, "lng": -7.2833 },
      { "nome": "Avis", "lat": 39.0754, "lng": -7.8998 },
      { "nome": "Campo Maior", "lat": 39.0156, "lng": -7.0660 },
      { "nome": "Castelo de Vide", "lat": 39.4168, "lng": -7.4566 },
      { "nome": "Crato", "lat": 39.2812, "lng": -7.6481 },
      { "nome": "Elvas", "lat": 38.8795, "lng": -7.1631 },
      { "nome": "Fronteira", "lat": 39.0534, "lng": -7.6499 },
      { "nome": "Gavião", "lat": 39.4754, "lng": -8.0010 },
      { "nome": "Marvão", "lat": 39.3971, "lng": -7.3752 },
      { "nome": "Monforte", "lat": 38.9970, "lng": -7.4365 },
      { "nome": "Nisa", "lat": 39.5140, "lng": -7.6548 },
      { "nome": "Ponte de Sor", "lat": 39.2481, "lng": -8.0110 },
      { "nome": "Portalegre", "lat": 39.2994, "lng": -7.4286 },
      { "nome": "Sousel", "lat": 38.9583, "lng": -7.6713 }
    ]
  },
  {
    "distrito": "Porto",
    "concelhos": [
      { "nome": "Amarante", "lat": 41.2707, "lng": -8.0780 },
      { "nome": "Baião", "lat": 41.1621, "lng": -8.0250 },
      { "nome": "Felgueiras", "lat": 41.3630, "lng": -8.1994 },
      { "nome": "Gondomar", "lat": 41.1428, "lng": -8.5327 },
      { "nome": "Lousada", "lat": 41.2813, "lng": -8.2829 },
      { "nome": "Maia", "lat": 41.2339, "lng": -8.6195 },
      { "nome": "Marco de Canaveses", "lat": 41.1842, "lng": -8.1520 },
      { "nome": "Matosinhos", "lat": 41.1847, "lng": -8.6877 },
      { "nome": "Paços de Ferreira", "lat": 41.2793, "lng": -8.3836 },
      { "nome": "Paredes", "lat": 41.2063, "lng": -8.3280 },
      { "nome": "Penafiel", "lat": 41.2110, "lng": -8.2842 },
      { "nome": "Porto", "lat": 41.1579, "lng": -8.6291 },
      { "nome": "Póvoa de Varzim", "lat": 41.3820, "lng": -8.7617 },
      { "nome": "Santo Tirso", "lat": 41.3431, "lng": -8.4761 },
      { "nome": "Trofa", "lat": 41.3313, "lng": -8.5602 },
      { "nome": "Valongo", "lat": 41.1875, "lng": -8.4980 },
      { "nome": "Vila do Conde", "lat": 41.3557, "lng": -8.7434 },
      { "nome": "Vila Nova de Gaia", "lat": 41.1178, "lng": -8.5985 }
    ]
  },
  {
    "distrito": "Santarém",
    "concelhos": [
      { "nome": "Abrantes", "lat": 39.4637, "lng": -8.1984 },
      { "nome": "Alcanena", "lat": 39.4578, "lng": -8.6570 },
      { "nome": "Almeirim", "lat": 39.2072, "lng": -8.6230 },
      { "nome": "Alpiarça", "lat": 39.2528, "lng": -8.5811 },
      { "nome": "Benavente", "lat": 38.9826, "lng": -8.8106 },
      { "nome": "Cartaxo", "lat": 39.1620, "lng": -8.7888 },
      { "nome": "Chamusca", "lat": 39.3519, "lng": -8.4827 },
      { "nome": "Constância", "lat": 39.4668, "lng": -8.3327 },
      { "nome": "Coruche", "lat": 38.9579, "lng": -8.5252 },
      { "nome": "Entroncamento", "lat": 39.4639, "lng": -8.4682 },
      { "nome": "Ferreira do Zêzere", "lat": 39.6990, "lng": -8.2877 },
      { "nome": "Golegã", "lat": 39.4002, "lng": -8.4905 },
      { "nome": "Mação", "lat": 39.5570, "lng": -7.9997 },
      { "nome": "Ourém", "lat": 39.6557, "lng": -8.5765 },
      { "nome": "Rio Maior", "lat": 39.3372, "lng": -8.9416 },
      { "nome": "Salvaterra de Magos", "lat": 39.0263, "lng": -8.7968 },
      { "nome": "Santarém", "lat": 39.2368, "lng": -8.6863 },
      { "nome": "Sardoal", "lat": 39.5362, "lng": -8.1612 },
      { "nome": "Tomar", "lat": 39.6037, "lng": -8.4116 },
      { "nome": "Torres Novas", "lat": 39.4806, "lng": -8.5386 },
      { "nome": "Vila Nova da Barquinha", "lat": 39.4538, "lng": -8.4338 }
    ]
  },
  {
    "distrito": "Setúbal",
    "concelhos": [
      { "nome": "Alcácer do Sal", "lat": 38.3735, "lng": -8.5143 },
      { "nome": "Alcochete", "lat": 38.7551, "lng": -8.9619 },
      { "nome": "Almada", "lat": 38.6803, "lng": -9.1548 },
      { "nome": "Barreiro", "lat": 38.6637, "lng": -9.0714 },
      { "nome": "Grândola", "lat": 38.1739, "lng": -8.5749 },
      { "nome": "Moita", "lat": 38.6455, "lng": -8.9837 },
      { "nome": "Montijo", "lat": 38.7069, "lng": -8.9725 },
      { "nome": "Palmela", "lat": 38.5715, "lng": -8.9017 },
      { "nome": "Santiago do Cacém", "lat": 37.9939, "lng": -8.6953 },
      { "nome": "Seixal", "lat": 38.6423, "lng": -9.0994 },
      { "nome": "Sesimbra", "lat": 38.4438, "lng": -9.1024 },
      { "nome": "Setúbal", "lat": 38.5244, "lng": -8.8882 },
      { "nome": "Sines", "lat": 37.9558, "lng": -8.8697 }
    ]
  },
  {
    "distrito": "Viana do Castelo",
    "concelhos": [
      { "nome": "Arcos de Valdevez", "lat": 41.8428, "lng": -8.4175 },
      { "nome": "Caminha", "lat": 41.8731, "lng": -8.8378 },
      { "nome": "Melgaço", "lat": 42.1147, "lng": -8.2649 },
      { "nome": "Monção", "lat": 42.0785, "lng": -8.4858 },
      { "nome": "Paredes de Coura", "lat": 41.9153, "lng": -8.5614 },
      { "nome": "Ponte da Barca", "lat": 41.8072, "lng": -8.4134 },
      { "nome": "Ponte de Lima", "lat": 41.7672, "lng": -8.5831 },
      { "nome": "Valença", "lat": 42.0289, "lng": -8.6378 },
      { "nome": "Viana do Castelo", "lat": 41.6974, "lng": -8.8308 },
      { "nome": "Vila Nova de Cerveira", "lat": 41.9374, "lng": -8.7425 }
    ]
  },
  {
    "distrito": "Vila Real",
    "concelhos": [
      { "nome": "Alijó", "lat": 41.2785, "lng": -7.4696 },
      { "nome": "Boticas", "lat": 41.6879, "lng": -7.6656 },
      { "nome": "Chaves", "lat": 41.7383, "lng": -7.4689 },
      { "nome": "Mesão Frio", "lat": 41.1588, "lng": -7.8478 },
      { "nome": "Mondim de Basto", "lat": 41.4083, "lng": -7.9490 },
      { "nome": "Montalegre", "lat": 41.8238, "lng": -7.7937 },
      { "nome": "Murça", "lat": 41.4073, "lng": -7.4555 },
      { "nome": "Peso da Régua", "lat": 41.1618, "lng": -7.7895 },
      { "nome": "Ribeira de Pena", "lat": 41.5226, "lng": -7.8222 },
      { "nome": "Sabrosa", "lat": 41.2658, "lng": -7.5695 },
      { "nome": "Santa Marta de Penaguião", "lat": 41.1936, "lng": -7.8020 },
      { "nome": "Valpaços", "lat": 41.6079, "lng": -7.2983 },
      { "nome": "Vila Pouca de Aguiar", "lat": 41.4983, "lng": -7.6381 },
      { "nome": "Vila Real", "lat": 41.3003, "lng": -7.7457 }
    ]
  },
  {
    "distrito": "Viseu",
    "concelhos": [
      { "nome": "Armamar", "lat": 41.0982, "lng": -7.6987 },
      { "nome": "Carregal do Sal", "lat": 40.4319, "lng": -8.0043 },
      { "nome": "Castro Daire", "lat": 40.9012, "lng": -7.9369 },
      { "nome": "Cinfães", "lat": 41.0740, "lng": -8.0871 },
      { "nome": "Lamego", "lat": 41.0968, "lng": -7.8079 },
      { "nome": "Mangualde", "lat": 40.6015, "lng": -7.7625 },
      { "nome": "Moimenta da Beira", "lat": 40.9852, "lng": -7.6163 },
      { "nome": "Mortágua", "lat": 40.3809, "lng": -8.2305 },
      { "nome": "Nelas", "lat": 40.5254, "lng": -7.8573 },
      { "nome": "Oliveira de Frades", "lat": 40.7251, "lng": -8.1728 },
      { "nome": "Penalva do Castelo", "lat": 40.6747, "lng": -7.6681 },
      { "nome": "Penedono", "lat": 40.9990, "lng": -7.3949 },
      { "nome": "Resende", "lat": 41.1005, "lng": -7.9621 },
      { "nome": "Santa Comba Dão", "lat": 40.3966, "lng": -8.1290 },
      { "nome": "São João da Pesqueira", "lat": 41.1492, "lng": -7.4022 },
      { "nome": "São Pedro do Sul", "lat": 40.7580, "lng": -8.0700 },
      { "nome": "Sátão", "lat": 40.7393, "lng": -7.6930 },
      { "nome": "Sernancelhe", "lat": 40.8934, "lng": -7.4909 },
      { "nome": "Tabuaço", "lat": 41.1185, "lng": -7.5806 },
      { "nome": "Tarouca", "lat": 41.0033, "lng": -7.7846 },
      { "nome": "Tondela", "lat": 40.5173, "lng": -8.0791 },
      { "nome": "Vila Nova de Paiva", "lat": 40.8533, "lng": -7.7357 },
      { "nome": "Viseu", "lat": 40.6566, "lng": -7.9122 },
      { "nome": "Vouzela", "lat": 40.7220, "lng": -8.1121 }
    ]
  },
  {
    "distrito": "Açores",
    "concelhos": [
      { "nome": "Angra do Heroísmo", "lat": 38.6519, "lng": -27.2196 },
      { "nome": "Calheta (Açores)", "lat": 38.5877, "lng": -28.0157 },
      { "nome": "Corvo", "lat": 39.6933, "lng": -31.1102 },
      { "nome": "Horta", "lat": 38.5327, "lng": -28.6281 },
      { "nome": "Lagoa (Açores)", "lat": 37.7420, "lng": -25.4976 },
      { "nome": "Lajes das Flores", "lat": 39.3819, "lng": -31.1741 },
      { "nome": "Lajes do Pico", "lat": 38.3999, "lng": -28.2553 },
      { "nome": "Madalena", "lat": 38.5358, "lng": -28.5310 },
      { "nome": "Nordeste", "lat": 37.7867, "lng": -25.1628 },
      { "nome": "Ponta Delgada", "lat": 37.7412, "lng": -25.6756 },
      { "nome": "Povoação", "lat": 37.7458, "lng": -25.2370 },
      { "nome": "Praia da Vitória", "lat": 38.7328, "lng": -27.0614 },
      { "nome": "Ribeira Grande", "lat": 37.8302, "lng": -25.5152 },
      { "nome": "Santa Cruz da Graciosa", "lat": 39.0554, "lng": -28.0113 },
      { "nome": "Santa Cruz das Flores", "lat": 39.4567, "lng": -31.1325 },
      { "nome": "São Roque do Pico", "lat": 38.5153, "lng": -28.3167 },
      { "nome": "Velas", "lat": 38.6780, "lng": -28.2020 },
      { "nome": "Vila do Corvo", "lat": 39.6933, "lng": -31.1102 },
      { "nome": "Vila do Porto", "lat": 36.9504, "lng": -25.1458 }
    ]
  },
  {
    "distrito": "Madeira",
    "concelhos": [
      { "nome": "Calheta (Madeira)", "lat": 32.7216, "lng": -17.1662 },
      { "nome": "Câmara de Lobos", "lat": 32.6506, "lng": -16.9782 },
      { "nome": "Funchal", "lat": 32.6669, "lng": -16.9241 },
      { "nome": "Machico", "lat": 32.7143, "lng": -16.7669 },
      { "nome": "Ponta do Sol", "lat": 32.6804, "lng": -17.1035 },
      { "nome": "Porto Moniz", "lat": 32.8618, "lng": -17.1619 },
      { "nome": "Porto Santo", "lat": 33.0671, "lng": -16.3456 },
      { "nome": "Ribeira Brava", "lat": 32.6791, "lng": -17.0620 },
      { "nome": "Santa Cruz (Madeira)", "lat": 32.7002, "lng": -16.8468 },
      { "nome": "Santana", "lat": 32.7990, "lng": -16.8905 },
      { "nome": "São Vicente", "lat": 32.7957, "lng": -17.0577 }
    ]
  }
]
